<?xml version="1.0" encoding="utf-8" ?>

<Cities>
  <Peking>
    <Name Value="Municipality of Beijing"/>
    <Longitude Value="116.408056"/>
    <Latitude Value="39.904444"/>
    <Size Value="Large"/>
    <Population Value="1695"/>
  </Peking>
  
  <Daqing>
    <Name Value="Daqing"/>
    <Longitude Value="125.120373"/>
    <Latitude Value="46.588597"/>
    <Size Value="Small"/>
    <Population Value="270"/>
  </Daqing>

  <Wuhan>
    <Name Value="Wuhan"/>
    <Longitude Value="144.305"/>
    <Latitude Value="30.5097222"/>
    <Size Value="Medium"/>
    <Population Value="970"/>
  </Wuhan>

  <Shanghai>
    <Name Value="Shanghai"/>
    <Longitude Value="121.47278"/>
    <Latitude Value="31.23056"/>
    <Size Value="Large"/>
    <Population Value="1888"/>
  </Shanghai>

  <Guangzhou>
    <Name Value="Canton"/>
    <Longitude Value="131.2641"/>
    <Latitude Value="23.1289"/>
    <Size Value="Medium"/>
    <Population Value="935"/>
  </Guangzhou>

  <Chengdu>
    <Name Value="Chengdu"/>
    <Longitude Value="104.065"/>
    <Latitude Value="30.6586"/>
    <Size Value="Medium"/>
    <Population Value="1125"/>
  </Chengdu>

  <Urumuqi>
    <Name Value="Urumuqi"/>
    <Longitude Value="87.61722"/>
    <Latitude Value="43.82556"/>
    <Size Value="Medium"/>
    <Population Value="235"/>
  </Urumuqi>

  <JiayYuguan>
    <Name Value="Jiayuguan"/>
    <Longitude Value="98.262577"/>
    <Latitude Value="39.769624"/>
    <Size Value="Small"/>
    <Population Value="13.8"/>
  </JiayYuguan>

  <Geermu>
    <Name Value="Ge'ermu"/>
    <Longitude Value="94.904709"/>
    <Latitude Value="36.414099"/>
    <Size Value="Small"/>
    <Population Value="17.5"/>
  </Geermu>

  <Ulaanbaatar>
    <Name Value="Ulan Bator"/>
    <Longitude Value="106.908989"/>
    <Latitude Value="47.920944"/>
    <Size Value="Medium"/>
    <Population Value="94.2"/>
  </Ulaanbaatar>

  <NewDelhi Nation="印度">
    <Name Value="New Delhi"/>
    <Longitude Value="71.225"/>
    <Latitude Value="28.635278"/>
    <Size Value="Medium"/>
    <Population Value="900"/>
  </NewDelhi>

  <Mumbai>
    <Name Value="Mumbai"/>
    <Longitude Value="72.8561"/>
    <Latitude Value="19.0175"/>
    <Size Value="Large"/>
    <Population Value="1400"/>
  </Mumbai>

  <Nagpur>
    <Name Value="Nagpur"/>
    <Longitude Value="79.08886"/>
    <Latitude Value="21.153517"/>
    <Size Value="Medium"/>
    <Population Value="242"/>
  </Nagpur>

  <Mandalay Nation="缅甸">
    <Name Value="Mandalay"/>
    <Longitude Value="96.0993"/>
    <Latitude Value="21.992556"/>
    <Size Value="Medium"/>
    <Population Value="130"/>
  </Mandalay>
  
  <Melbourne Nation="澳大利亚">
    <Name Value="Melbourne"/>
    <Longitude Value="144.970093"/>
    <Latitude Value="-37.818463"/>
    <Size Value="Large"/>
    <Population Value=""/>
  </Melbourne>

  <Albany>
    <Name Value="Albany"/>
    <Longitude Value="145.775"/>
    <Latitude Value="-16.925278"/>
    <Size Value="Medium"/>
    <Population Value=""/>
  </Albany>

  <Caims>
    <Name Value="Caims"/>
    <Longitude Value="117.878838"/>
    <Latitude Value="-35.005534"/>
    <Size Value="Medium"/>
    <Population Value=""/>
  </Caims>

  <AliceSprings>
    <Name Value="Alice Springs"/>
    <Longitude Value="133.879995"/>
    <Latitude Value="-23.700808"/>
    <Size Value="Small"/>
    <Population Value="2"/>
  </AliceSprings>
  
  <Qandahar Nation="阿富汗">
    <Name>Kandahar</Name>
    <Longitude>65.721588</Longitude>
    <Latitude>31.617866</Latitude>
    <Size>Small</Size>
    <Population>46</Population>
  </Qandahar>
  
  <Moscow Nation="俄罗斯">
    <Name>Moscow</Name>
    <Longitude>37.617188</Longitude>
    <Latitude>55.748758</Latitude>
    <Size>Large</Size>
    <Population>1052</Population>
  </Moscow>

  <Novosibirsk>
    <Name>Novosibirsk</Name>
    <Longitude>82.92326</Longitude>
    <Latitude>55.024086</Latitude>
    <Size>Small</Size>
    <Population>142</Population>
  </Novosibirsk>

  <Irkutsk>
    <Name>Irkutsk</Name>
    <Longitude>104.308319</Longitude>
    <Latitude>52.27383</Latitude>
    <Size>Small</Size>
    <Population>59</Population>
  </Irkutsk>

  <Komsomolsk-on-Amur>
    <Name>Komsomolsk-on-Amur</Name>
    <Longitude>136.995392</Longitude>
    <Latitude>50.549217</Latitude>
    <Size>Medium</Size>
    <Population>27</Population>
  </Komsomolsk-on-Amur>
  
  <Dhaka Nation="孟加拉国">
    <Name>Dhaka</Name>
    <Longitude>90.391388</Longitude>
    <Latitude>23.772149</Latitude>
    <Size>Medium</Size>
    <Population>700</Population>
  </Dhaka>
  
  <Suzak Nation="哈萨克斯坦">
    <Name>Suzak</Name>
    <Longitude>68.466282</Longitude>
    <Latitude>44.140272</Latitude>
    <Size>Small</Size>
  </Suzak>

  <Tashkent>
    <Name>Tashkent</Name>
    <Longitude>69.257813</Longitude>
    <Latitude>41.309277</Latitude>
    <Size>Medium</Size>
    <Population>218</Population>
  </Tashkent>

  <Balkanabat Nation="乌兹别克斯坦">
    <Name>Balkanabat</Name>
    <Longitude>54.37593</Longitude>
    <Latitude>39.504537</Latitude>
    <Size>Small</Size>
    <Population>8</Population>
  </Balkanabat>

  <Paris Nation="法国">
    <Name>Paris</Name>
    <Longitude>2.35083</Longitude>
    <Latitude>48.8567</Latitude>
    <Size>Large</Size>
    <Population>1176</Population>
  </Paris>

  <Toulouse>
    <Name>Toulouse</Name>
    <Longitude>1.441612</Longitude>
    <Latitude>43.601279</Latitude>
    <Size>Medium</Size>
    <Population>1102</Population>
  </Toulouse>

  <Angers>
    <Name>Angers</Name>
    <Longitude>-0.5476</Longitude>
    <Latitude>47.466049</Latitude>
    <Size>Large</Size>
    <Population>Small</Population>
  </Angers>
  
  <Berlin Nation="德国">
    <Name>Berlin</Name>
    <Longitude>13.4095</Longitude>
    <Latitude>52.520399</Latitude>
    <Size>Large</Size>
    <Population>343</Population>
  </Berlin>

  <Hannover>
    <Name>Hanover</Name>
    <Longitude>9.730453</Longitude>
    <Latitude>52.382515</Latitude>
    <Size>Medium</Size>
    <Population>52</Population>
  </Hannover>

  <Ulm>
    <Name>Ulm</Name>
    <Longitude>9.990349</Longitude>
    <Latitude>48.397297</Latitude>
    <Size>Small</Size>
    <Population>12</Population>
  </Ulm>
  
  <Warszawa Nation="波兰">
    <Name>Warsaw</Name>
    <Longitude>21.055298</Longitude>
    <Latitude>52.223593</Latitude>
    <Size>Large</Size>
    <Population>171</Population>
  </Warszawa>

  <Torun>
    <Name>Torun</Name>
    <Longitude>18.608952</Longitude>
    <Latitude>53.009929</Latitude>
    <Size>Small</Size>
    <Population>20</Population>
  </Torun>

  <Kyiv Nation="乌克兰">
    <Name>Kiev</Name>
    <Longitude>30.531006</Longitude>
    <Latitude>50.447011</Latitude>
    <Size>Medium</Size>
    <Population>281</Population>
  </Kyiv>

  <Kryvyi>
    <Name>Kryvyi Rih</Name>
    <Longitude>33.397236</Longitude>
    <Latitude>47.897355</Latitude>
    <Size>Small</Size>
    <Population>71</Population>
  </Kryvyi>
  
  <Craiova Nation="罗马尼亚">
    <Name>Craiova</Name>
    <Longitude>23.794327</Longitude>
    <Latitude>44.318936</Latitude>
    <Size>Small</Size>
    <Population>29</Population>
  </Craiova>

  <Bucuresti>
    <Name>Bucharest</Name>
    <Longitude>26.109009</Longitude>
    <Latitude>44.425934</Latitude>
    <Size>Medium</Size>
    <Population>194</Population>
  </Bucuresti>

  <Valladolid Nation="西班牙">
    <Name>Valladolid</Name>
    <Longitude>-4.731503</Longitude>
    <Latitude>41.652265</Latitude>
    <Size>Small</Size>
    <Population>31</Population>
  </Valladolid>

  <Madrid>
    <Name>Madrid</Name>
    <Longitude>-3.702736</Longitude>
    <Latitude>40.418724</Latitude>
    <Size>Large</Size>
    <Population>321</Population>
  </Madrid>

  <Valencia>
    <Name>Valencia</Name>
    <Longitude>-0.374908</Longitude>
    <Latitude>39.468005</Latitude>
    <Size>Medium</Size>
    <Population></Population>
  </Valencia>
  
  <Milano Nation="意大利">
    <Name>Milan</Name>
    <Longitude>9.186287</Longitude>
    <Latitude>45.462539</Latitude>
    <Size>Medium</Size>
    <Population>130</Population>
  </Milano>

  <Alger Nation="阿尔及利亚">
    <Name>Alger</Name>
    <Longitude>3.048878</Longitude>
    <Latitude>36.738609</Latitude>
    <Size>Medium</Size>
    <Population>151</Population>
  </Alger>

  <BeniAbbes>
    <Name>Beni Abbes</Name>
    <Longitude>-2.169456</Longitude>
    <Latitude>30.134439</Latitude>
    <Size>Small</Size>
    <Population>1</Population>
  </BeniAbbes>
  
  
</Cities>