<?xml version="1.0" encoding="utf-8" ?>
<cities>
  <!--中国-->
  <Peking>
    <Name>Beijing</Name>
    <Longitude>116.408056</Longitude>
    <Latitude>39.904444</Latitude>
    <Size>Large</Size>
    <Population>1500</Population>
  </Peking>
  <Daqing>
    <Name>Daqing</Name>
    <Longitude>125.120373</Longitude>
    <Latitude>46.588597</Latitude>
    <Size>Small</Size>
    <Population>270</Population>
  </Daqing>

  <!--日本-->
  <Tokyo>
    <Name>Tokyo</Name>
    <Longitude>139.390039</Longitude>
    <Latitude>36.350527</Latitude>
    <Size>Large</Size>
    <Population>1500</Population>
  </Tokyo>

  <!--巴布亚新几内亚-->
  <PortMoresby>
    <Name>Port Moresby</Name>
    <Longitude>139.190704</Longitude>
    <Latitude>-4.453126</Latitude>
    <Size>Small</Size>
    <Population>40</Population>
  </PortMoresby>

  <!--澳大利亚-->
  <Birdum>
    <Name>Birdum</Name>
    <Longitude>143.525391</Longitude>
    <Latitude>-18.834536</Latitude>
    <Size>Small</Size>
    <Population>48</Population>
  </Birdum>

  <Melbourne>
    <Name>Melbourne</Name>
    <Longitude>144.970093</Longitude>
    <Latitude>-37.318463</Latitude>
    <Size>Large</Size>
    <Population>389</Population>
  </Melbourne>

  <Queensland>
    <Name>Queensland</Name>
    <Longitude>133.428955</Longitude>
    <Latitude>-22.836946</Latitude>
    <Size>Large</Size>
    <Population>418</Population>
  </Queensland>

  <AliceSprings>
    <Name>Alice Springs</Name>
    <Longitude>133.879995</Longitude>
    <Latitude>-18.700808</Latitude>
    <Size>Small</Size>
    <Population>20</Population>
  </AliceSprings>
  
  <!--俄罗斯-->
  <Komsomolsk-on-Amur>
    <Name>Komsomolsk-on-Amur</Name>
    <Longitude>136.995392</Longitude>
    <Latitude>50.549217</Latitude>
    <Size>Medium</Size>
    <Population>27</Population>
  </Komsomolsk-on-Amur>
  
  <!--中国呼伦贝尔-->
  <Hulunber>
    <Name>Hulunber</Name>
    <Longitude>119.882813</Longitude>
    <Latitude>49.15297</Latitude>
    <Size>Medium</Size>
    <Population>270</Population>
  </Hulunber>
  
   <Shanghai>
    <Name>Shanghai</Name>
    <Longitude>119.47278</Longitude>
    <Latitude>31.23056</Latitude>
    <Size>Large</Size>
    <Population>1500</Population>
  </Shanghai>
  
  <Urumuqi>
    <Name>Urumuqi</Name>
    <Longitude>87.61722</Longitude>
    <Latitude>43.82556</Latitude>
    <Size>Medium</Size>
    <Population>235</Population>
  </Urumuqi>
  
  <!--澳大利亚-->
  <Meekatharra>
    <Name>Meekatharra</Name>
    <Longitude>118.652344</Longitude>
    <Latitude>-26.735799</Latitude>
    <Size>Small</Size>
    <Population>48</Population>
  </Meekatharra>


  <!--柬埔寨-->
  <SiemReap>
    <Name>Siem Reap</Name>
    <Longitude>103.866119</Longitude>
    <Latitude>13.376928</Latitude>
    <Size>Small</Size>
    <Population>9</Population>
  </SiemReap>

  <Kunming>
    <Name>Kunming</Name>
    <Longitude>102.727661</Longitude>
    <Latitude>25.090574</Latitude>
    <Size>Medium</Size>
    <Population>970</Population>
  </Kunming>
 
  <!--蒙古国-->
  <Dalanzadgad>
    <Name>Dalanzadgad</Name>
    <Longitude>104.468994</Longitude>
    <Latitude>43.548548</Latitude>
    <Size>Medium</Size>
    <Population>350</Population>
  </Dalanzadgad>
  
<!--俄罗斯-->
  <Irkutsk>
    <Name>Irkutsk</Name>
    <Longitude>104.308319</Longitude>
    <Latitude>52.27383</Latitude>
    <Size>Small</Size>
    <Population>50</Population>
  </Irkutsk>

  <Geermu>
    <Name>Ge'ermu</Name>
    <Longitude>94.904709</Longitude>
    <Latitude>36.414099</Latitude>
    <Size>Small</Size>
    <Population>17.5</Population>
  </Geermu>
  
 <!--印度-->
  <Kolkata>
    <Name>Kolkata</Name>
    <Longitude>87.445313</Longitude>
    <Latitude>25.641526</Latitude>
    <Size>Large</Size>
    <Population>1430</Population>
  </Kolkata>

  <NewDelhi>
    <Name>New Delhi</Name>
    <Longitude>77.225</Longitude>
    <Latitude>28.635278</Latitude>
    <Size>Large</Size>
    <Population>1500</Population>
  </NewDelhi>


  <!--新疆喀什-->
  <Kashi>
    <Name>Kashi</Name>
    <Longitude>78.321533</Longitude>
    <Latitude>38.848264</Latitude>
    <Size>Medium</Size>
    <Population>360</Population>
  </Kashi>
  
  <Novosibirsk>
    <Name>Novosibirsk</Name>
    <Longitude>80.92326</Longitude>
    <Latitude>55.024086</Latitude>
    <Size>Small</Size>
    <Population>42</Population>
  </Novosibirsk>

  <!--哈萨克斯坦-->
  <Kostaly>
    <Name>Kostaly</Name>
    <Longitude>64.775391</Longitude>
    <Latitude>51.368351</Latitude>
    <Size>Medium</Size>
    <Population>100</Population>
  </Kostaly>

<!--土库曼-->
  <Lyebapu>
    <Name>Lyebapu</Name>
    <Longitude>63.880005</Longitude>
    <Latitude>37.913867</Latitude>
    <Size>Medium</Size>
    <Population>102</Population>
  </Lyebapu>
  

  <!--阿富汗-->
  <Qandahar>
    <Name>Kandahar</Name>
    <Longitude>65.721588</Longitude>
    <Latitude>31.617866</Latitude>
    <Size>Small</Size>
    <Population>46</Population>
  </Qandahar>
 
<!--沙特-->
  <Riyadh>
    <Name>Riyadh</Name>
    <Longitude>46.845703</Longitude>
    <Latitude>21.902278</Latitude>
    <Size>Medium</Size>
    <Population>150</Population>
  </Riyadh>
 
  <!--伊朗-->
  <Qum>
    <Name>Qum</Name>
    <Longitude>50.894165</Longitude>
    <Latitude>34.642247</Latitude>
    <Size>Small</Size>
    <Population>45</Population>
    </Qum>
    

  <!--俄罗斯-->
  <Samara>
    <Name>Samara</Name>
    <Longitude>50.141602</Longitude>
    <Latitude>53.396432</Latitude>
    <Size>Medium</Size>
    <Population>127</Population>
  </Samara>

  <!--沙特阿拉伯-->
  <ArRiyad>
    <Name>Ar Riyad</Name>
    <Longitude>46.728973</Longitude>
    <Latitude>24.673226</Latitude>
    <Size>Medium</Size>
    <Population>545</Population>
  </ArRiyad>
 
  
  <!--保加利亚-->
  <Opan>
    <Name>Opan</Name>
    <Longitude>25.691528</Longitude>
    <Latitude>42.22089</Latitude>
    <Size>Small</Size>
    <Population>39</Population>
  </Opan>

  <!--津巴布韦-->
  <Harare>
    <Name>Harare</Name>
    <Longitude>31.053886</Longitude>
    <Latitude>-17.827717</Latitude>
    <Size>Medium</Size>
    <Population>187</Population>
  </Harare>

  <!--肯尼亚-->
  <Nairobi>
    <Name>Nairobi</Name>
    <Longitude>36.813812</Longitude>
    <Latitude>-1.248223</Latitude>
    <Size>Large</Size>
    <Population>200</Population>
  </Nairobi>

  <!--埃塞俄比亚-->
  <AddisAbeta>
    <Name>AddisAbeta</Name>
    <Longitude>38.752213</Longitude>
    <Latitude>9.010894</Latitude>
    <Size>Large</Size>
    <Population>200</Population>
  </AddisAbeta>


  <Hail>
    <Name>Hail</Name>
    <Longitude>41.693802</Longitude>
    <Latitude>27.520451</Latitude>
    <Size>Small</Size>
    <Population>26</Population>
  </Hail>

  <DayrazZawr>
    <Name>DayrazZawr</Name>
    <Longitude>35.196256</Longitude>
    <Latitude>40.501099</Latitude>
    <Size>Small</Size>
    <Population>10</Population>
  </DayrazZawr>


  <Khmelnitski>
    <Name>Khmelnitski</Name>
    <Longitude>26.90625</Longitude>
    <Latitude>49.944265</Latitude>
    <Size>Large</Size>
    <Population>139</Population>
  </Khmelnitski>

  <Kufrah>
    <Name>Kufrah</Name>
    <Longitude>22.851563</Longitude>
    <Latitude>25.562265</Latitude>
    <Size>Small</Size>
    <Population>10</Population>
  </Kufrah>

  <Vulu>
    <Name>Vulu</Name>
    <Longitude>24.356689</Longitude>
    <Latitude>9.75237</Latitude>
    <Size>Small</Size>
    <Population>29</Population>
  </Vulu>

  <!--刚果-->
  <Kisangani>
    <Name>Kisangani</Name>
    <Longitude>25.194397</Longitude>
    <Latitude>0.550681</Latitude>
    <Size>Medium</Size>
    <Population>70</Population>
  </Kisangani>

  <!--Zambia-->
  <Lusaka>
    <Name>Lusaka</Name>
    <Longitude>23.280869</Longitude>
    <Latitude>-15.410988</Latitude>
    <Size>Medium</Size>
    <Population>200</Population>
  </Lusaka>

  <Upington>
    <Name>Upington</Name>
    <Longitude>21.242409</Longitude>
    <Latitude>-28.459033</Latitude>
    <Size>Small</Size>
    <Population>10</Population>
  </Upington>

  <!--Cameroon-->
  <Yaounde>
    <Name>Yaounde</Name>
    <Longitude>13.517792</Longitude>
    <Latitude>3.857746</Latitude>
    <Size>Medium</Size>
    <Population>143</Population>
  </Yaounde>

  <!--Niger-->
  <Agadez>
    <Name>Agadez</Name>
    <Longitude>10.984571</Longitude>
    <Latitude>11.972577</Latitude>
    <Size>Small</Size>
    <Population>30</Population>
  </Agadez>

  <Ghat>
    <Name>Ghat</Name>
    <Longitude>26.017298</Longitude>
    <Latitude>10.766602</Latitude>
    <Size>Small</Size>
    <Population>34</Population>
  </Ghat>

  <!--德国-->
  <Berlin>
    <Name>Berlin</Name>
    <Longitude>13.4095</Longitude>
    <Latitude>50.520399</Latitude>
    <Size>Large</Size>
    <Population>343</Population>
  </Berlin>

  <!--西班牙-->
  <Madrid>
    <Name>Madrid</Name>
    <Longitude>-5.702736</Longitude>
    <Latitude>41.918724</Latitude>
    <Size>Large</Size>
    <Population>321</Population>
  </Madrid>

  <Adrar>
    <Name>Adrar</Name>
    <Longitude>-2.790527</Longitude>
    <Latitude>25.204941</Latitude>
    <Size>Small</Size>
    <Population>320</Population>
  </Adrar>

  <!--Mali-->
  <Bamako>
    <Name>Bamako</Name>
    <Longitude>-4.988777</Longitude>
    <Latitude>12.624928</Latitude>
    <Size>Medium</Size>
    <Population>150</Population>
  </Bamako>



  

  

  <!--<DayrazZawr>
    <Name>DayrazZawr</Name>
    <Longitude>35.196256</Longitude>
    <Latitude>40.501099</Latitude>
    <Size>Small</Size>
    <Population>10</Population>
  </DayrazZawr>-->


  <!--<Khmelnitski>
    <Name>Khmelnitski</Name>
    <Longitude>26.90625</Longitude>
    <Latitude>49.944265</Latitude>
    <Size>Large</Size>
    <Population>139</Population>
  </Khmelnitski>

  <Kufrah>
    <Name>Kufrah</Name>
    <Longitude>22.851563</Longitude>
    <Latitude>25.562265</Latitude>
    <Size>Small</Size>
    <Population>10</Population>
  </Kufrah>

  <Vulu>
    <Name>Vulu</Name>
    <Longitude>24.356689</Longitude>
    <Latitude>9.75237</Latitude>
    <Size>Small</Size>
    <Population>29</Population>
  </Vulu>-->

  <!--刚果--><!--
  <Kisangani>
    <Name>Kisangani</Name>
    <Longitude>25.194397</Longitude>
    <Latitude>0.550681</Latitude>
    <Size>Medium</Size>
    <Population>70</Population>
  </Kisangani>-->

  <!--Zambia--><!--
  <Lusaka>
    <Name>Lusaka</Name>
    <Longitude>23.280869</Longitude>
    <Latitude>-15.410988</Latitude>
    <Size>Medium</Size>
    <Population>200</Population>
  </Lusaka>-->

  <!--<Upington>
    <Name>Upington</Name>
    <Longitude>21.242409</Longitude>
    <Latitude>-28.459033</Latitude>
    <Size>Small</Size>
    <Population>10</Population>
  </Upington>-->

  <!--Cameroon-->
  <!--<Yaounde>
    <Name>Yaounde</Name>
    <Longitude>13.517792</Longitude>
    <Latitude>3.857746</Latitude>
    <Size>Medium</Size>
    <Population>143</Population>
  </Yaounde>-->

  <!--Niger-->
  <!--<Agadez>
    <Name>Agadez</Name>
    <Longitude>10.984571</Longitude>
    <Latitude>11.972577</Latitude>
    <Size>Small</Size>
    <Population>30</Population>
  </Agadez>-->

  <!--<Ghat>
    <Name>Ghat</Name>
    <Longitude>26.017298</Longitude>
    <Latitude>10.766602</Latitude>
    <Size>Small</Size>
    <Population>34</Population>
  </Ghat>-->

  <!--德国-->
  <!--<Berlin>
    <Name>Berlin</Name>
    <Longitude>13.4095</Longitude>
    <Latitude>50.520399</Latitude>
    <Size>Large</Size>
    <Population>343</Population>
  </Berlin>-->

  <!--西班牙-->
  <!--<Madrid>
    <Name>Madrid</Name>
    <Longitude>-5.702736</Longitude>
    <Latitude>41.918724</Latitude>
    <Size>Large</Size>
    <Population>321</Population>
  </Madrid>-->

  <!--<Adrar>
    <Name>Adrar</Name>
    <Longitude>-2.790527</Longitude>
    <Latitude>25.204941</Latitude>
    <Size>Small</Size>
    <Population>320</Population>
  </Adrar>-->

  <!--Mali-->
  <!--<Bamako>
    <Name>Bamako</Name>
    <Longitude>-4.988777</Longitude>
    <Latitude>12.624928</Latitude>
    <Size>Medium</Size>
    <Population>150</Population>
  </Bamako>-->

  <!--Mauritania-->
  <Nouakchott>
    <Name>Nouakchott</Name>
    <Longitude>-13.279271</Longitude>
    <Latitude>16.08777</Latitude>
    <Size>Small</Size>
    <Population>50</Population>
  </Nouakchott>

  <Mauritania>
    <Name>Mauritania</Name>
    <Longitude>24.20689</Longitude>
    <Latitude>-9.887695</Latitude>
    <Size>Small</Size>
    <Population>29</Population>
  </Mauritania>

  
  <Maraba>
    <Name>Maraba</Name>
    <Longitude>-44.105968</Longitude>
    <Latitude>-5.352838</Latitude>
    <Size>Medium</Size>
    <Population>150</Population>
  </Maraba>

  <Brasilia>
    <Name>Brasilia</Name>
    <Longitude>-44.969055</Longitude>
    <Latitude>-15.826609</Latitude>
    <Size>Medium</Size>
    <Population>205</Population>
  </Brasilia>

  <!--巴拉圭-->
  <Asuncion>
    <Name>Asuncion</Name>
    <Longitude>-57.637024</Longitude>
    <Latitude>-25.288163</Latitude>
    <Size>Medium</Size>
    <Population>51</Population>
  </Asuncion>

  <Sinop>
    <Name>Sinop</Name>
    <Longitude>-55.503359</Longitude>
    <Latitude>-14.858699</Latitude>
    <Size>Small</Size>
    <Population>18</Population>
  </Sinop>

  <Manaus>
    <Name>Manaus</Name>
    <Longitude>-60.010757</Longitude>
    <Latitude>-3.08258</Latitude>
    <Size>Medium</Size>
    <Population>150</Population>
  </Manaus>
  <!--厄瓜多尔-->
  <Quito>
    <Name>Quito</Name>
    <Longitude>-78.521347</Longitude>
    <Latitude>-0.216293</Latitude>
    <Size>Large</Size>
    <Population>190</Population>
  </Quito>


  <Acre>
    <Name>Acre</Name>
    <Longitude>-70.532227</Longitude>
    <Latitude>-9.145486</Latitude>
    <Size>Medium</Size>
    <Population>100</Population>

  </Acre>

  <Cordoba>
    <Name>Cordoba</Name>
    <Longitude>-64.188652</Longitude>
    <Latitude>-31.406396</Latitude>
    <Size>Medium</Size>
    <Population>306</Population>
  </Cordoba>

  <!--智利-->
  <LosAngeles>
    <Name>Los Angeles</Name>
    <Longitude>-71.351151</Longitude>
    <Latitude>-37.471316</Latitude>
    <Size>Small</Size>
    <Population>30</Population>

  </LosAngeles>

  <Boston>
    <Name>Boston</Name>
    <Longitude>-73.064034</Longitude>
    <Latitude>42.354992</Latitude>
    <Size>Large</Size>
    <Population>59</Population>
  </Boston>

  <Quebec>
    <Name>Quebec</Name>
    <Longitude>-80.215439</Longitude>
    <Latitude>52.80288</Latitude>
    <Size>Medium</Size>
    <Population>778</Population>
  </Quebec>

  <Washington>
    <Name>Washington</Name>
    <Longitude>-79.01004</Longitude>
    <Latitude>38.907064</Latitude>
    <Size>Large</Size>
    <Population>589</Population>
  </Washington>

  <Saskatoon>
    <Name>Saskatoon</Name>
    <Longitude>-98.671066</Longitude>
    <Latitude>52.127165</Latitude>
    <Size>Medium</Size>
    <Population>20</Population>
  </Saskatoon>

  <Dallas>
    <Name>Dallas</Name>
    <Longitude>-96.763458</Longitude>
    <Latitude>36.831135</Latitude>
    <Size>Large</Size>
    <Population>569</Population>
  </Dallas>

  <!--墨西哥-->
  <SanJuanBautistaTuxtepec>
    <Name>San Juan Bautista Tuxtepec</Name>
    <Longitude>-96.14213</Longitude>
    <Latitude>18.085322</Latitude>
    <Size>Small</Size>
    <Population>30</Population>
  </SanJuanBautistaTuxtepec>

  <SanFrancisco>
    <Name>San Francisco</Name>
    <Longitude>-112.78894</Longitude>
    <Latitude>37.173433</Latitude>
    <Size>Large</Size>
    <Population>73</Population>
  </SanFrancisco>

  <!--加拿大-->
  <Calgary>
    <Name>Calgary</Name>
    <Longitude>-114.051819</Longitude>
    <Latitude>51.054344</Latitude>
    <Size>Large</Size>
    <Population>108</Population>
  </Calgary>

  <PrinceGeorge>
    <Name>Prince George</Name>
    <Longitude>-1123.75</Longitude>
    <Latitude>53.054344</Latitude>
    <Size>Small</Size>
    <Population>10</Population>
  </PrinceGeorge>
</cities>
