<?xml version="1.0" encoding="utf-8" ?>

<Cities>
  <Peking>
    <Name>Municipality of Beijing</Name>
    <Longitude>116.408056</Longitude>
    <Latitude>39.904444</Latitude>
    <Size>Large</Size>
    <Population>1695</Population>
  </Peking>

  <Daqing>
    <Name>Daqing</Name>
    <Longitude>125.120373</Longitude>
    <Latitude>46.588597</Latitude>
    <Size>Small</Size>
    <Population>270</Population>
  </Daqing>

  <Wuhan>
    <Name>Wuhan</Name>
    <Longitude>144.305</Longitude>
    <Latitude>30.5097222</Latitude>
    <Size>Medium</Size>
    <Population>970</Population>
  </Wuhan>

  <Shanghai>
    <Name>Shanghai</Name>
    <Longitude>121.47278</Longitude>
    <Latitude>31.23056</Latitude>
    <Size>Large</Size>
    <Population>1888</Population>
  </Shanghai>

  <Guangzhou>
    <Name>Canton</Name>
    <Longitude>131.2641</Longitude>
    <Latitude>23.1289</Latitude>
    <Size>Medium</Size>
    <Population>935</Population>
  </Guangzhou>

  <Chengdu>
    <Name>Chengdu</Name>
    <Longitude>104.065</Longitude>
    <Latitude>30.6586</Latitude>
    <Size>Medium</Size>
    <Population>1125</Population>
  </Chengdu>

  <Urumuqi>
    <Name>Urumuqi</Name>
    <Longitude>87.61722</Longitude>
    <Latitude>43.82556</Latitude>
    <Size>Medium</Size>
    <Population>235</Population>
  </Urumuqi>

  <JiayYuguan>
    <Name>Jiayuguan</Name>
    <Longitude>98.262577</Longitude>
    <Latitude>39.769624</Latitude>
    <Size>Small</Size>
    <Population>13.8</Population>
  </JiayYuguan>

  <Geermu>
    <Name>Ge'ermu</Name>
    <Longitude>94.904709</Longitude>
    <Latitude>36.414099</Latitude>
    <Size>Small</Size>
    <Population>17.5</Population>
  </Geermu>

  <Ulaanbaatar>
    <Name>Ulan Bator</Name>
    <Longitude>106.908989</Longitude>
    <Latitude>47.920944</Latitude>
    <Size>Medium</Size>
    <Population>94.2</Population>
  </Ulaanbaatar>

  <!--印度-->
  <NewDelhi>
    <Name>New Delhi</Name>
    <Longitude>71.225</Longitude>
    <Latitude>28.635278</Latitude>
    <Size>Medium</Size>
    <Population>900</Population>
  </NewDelhi>

  <Mumbai>
    <Name>Mumbai</Name>
    <Longitude></Longitude>
    <Latitude></Latitude>
    <Size>Large</Size>
    <Population>1400</Population>
  </Mumbai>

  <Nagpur>
    <Name>Nagpur</Name>
    <Longitude>79.08886</Longitude>
    <Latitude>21.153517</Latitude>
    <Size>Medium</Size>
    
  </Nagpur>

  <!--缅甸-->
  <Mandalay>
    <Name>Mandalay</Name>
    <Longitude>96.0993</Longitude>
    <Latitude>21.992556</Latitude>
    <Size>Medium</Size>
    
  </Mandalay>
  
  
</Cities>