<?xml version="1.0" encoding="utf-8" ?>
<cities>
  <!--Line 0-->
  <C0000>
    <Name>No City</Name>
    <Longitude>-129.3506</Longitude>
    <Latitude>57.85714</Latitude>
    <Size></Size>
    <Population></Population>
  </C0000>
  <C0001>
    <Name>No City</Name>
    <Longitude>-110.8442</Longitude>
    <Latitude>57.85714</Latitude>
    <Size></Size>
    <Population></Population>
  </C0001>
  <C0002>
    <Name>No City</Name>
    <Longitude>-92.33765</Longitude>
    <Latitude>57.85714</Latitude>
    <Size></Size>
    <Population></Population>
  </C0002>
  <C0003>
    <Name>No City</Name>
    <Longitude>-73.83116</Longitude>
    <Latitude>57.85714</Latitude>
    <Size></Size>
    <Population></Population>
  </C0003>
  <C0004>
    <Name>Qktyabr</Name>
    <Longitude>37.20779</Longitude>
    <Latitude>57.85714</Latitude>
    <Size>Small</Size>
    <Population></Population>
  </C0004>
  <C0005>
    <Name>Perm</Name>
    <Longitude>55.71428</Longitude>
    <Latitude>57.85714</Latitude>
    <Size></Size>
    <Population></Population>
  </C0005>
  <C0006>
    <Name>No City</Name>
    <Longitude>74.22078</Longitude>
    <Latitude>57.85714</Latitude>
    <Size></Size>
    <Population></Population>
  </C0006>
  <C0007>
    <Name>Strelka</Name>
    <Longitude>92.72727</Longitude>
    <Latitude>57.85714</Latitude>
    <Size>Small</Size>
    <Population></Population>
  </C0007>
  <C0008>
    <Name>Sogdiondon</Name>
    <Longitude>111.2338</Longitude>
    <Latitude>57.85714</Latitude>
    <Size>Small</Size>
    <Population></Population>
  </C0008>
  <C0009>
    <Name>No City</Name>
    <Longitude>129.7402</Longitude>
    <Latitude>57.85714</Latitude>
    <Size></Size>
    <Population></Population>
  </C0009>

  <!--Line 1-->
  <C0100>
    <Name>No City</Name>
    <Longitude>-120.1948</Longitude>
    <Latitude>48.7013</Latitude>
    <Size></Size>
    <Population></Population>
  </C0100>
  <C0101>
    <Name>Mohall</Name>
    <Longitude>-101.6883</Longitude>
    <Latitude>48.7013</Latitude>
    <Size>Small</Size>
    <Population></Population>
    <Farm>2</Farm>
    <StartUp>1</StartUp>
  </C0101>
  <C0102>
    <Name>No City</Name>
    <Longitude>-83.18182</Longitude>
    <Latitude>48.7013</Latitude>
    <Size></Size>
    <Population></Population>
  </C0102>
  <C0103>
    <Name>Gaspe</Name>
    <Longitude>-64.67532</Longitude>
    <Latitude>48.7013</Latitude>
    <Size>Small</Size>
    <Population></Population>
  </C0103>
  <C0104>
    <Name>Stuttgart</Name>
    <Longitude>9.350649</Longitude>
    <Latitude>48.7013</Latitude>
    <Size>Medium</Size>
    <Population></Population>
  </C0104>
  <C0105>
    <Name>Sharhorod</Name>
    <Longitude>27.85714</Longitude>
    <Latitude>48.7013</Latitude>
    <Size></Size>
    <Population></Population>
  </C0105>
  <C0106>
    <Name>Biyatov</Name>
    <Longitude>46.36364</Longitude>
    <Latitude>48.7013</Latitude>
    <Size>Small</Size>
    <Population></Population>
  </C0106>
  <C0107>
    <Name>No City</Name>
    <Longitude>64.87012</Longitude>
    <Latitude>48.7013</Latitude>
    <Size></Size>
    <Population></Population>
  </C0107>
  <C0108>
    <Name>Aksuat</Name>
    <Longitude>83.37662</Longitude>
    <Latitude>48.7013</Latitude>
    <Size>Large</Size>
    <Population>1500</Population>
  </C0108>
  <C0109>
    <Name>Ulaanbaatar</Name>
    <Longitude>101.8831</Longitude>
    <Latitude>48.7013</Latitude>
    <Size>Medium</Size>
    <Population></Population>
  </C0109>
  <C0110>
    <Name>Hulun Buir</Name>
    <Longitude>120.3896</Longitude>
    <Latitude>48.7013</Latitude>
    <Size>Small</Size>
    <Population></Population>
    <Farm>2</Farm>
    <StartUp>2</StartUp>
  </C0110>
  <C0111>
    <Name>No City</Name>
    <Longitude>138.8961</Longitude>
    <Latitude>48.7013</Latitude>
    <Size></Size>
    <Population></Population>
  </C0111>
  
  <!--Line 2-->
  <C0200>
    <Name>Price</Name>
    <Longitude>-110.8442</Longitude>
    <Latitude>39.35065</Latitude>
    <Size>Small</Size>
    <Population></Population>
    <Farm>2</Farm>
    <StartUp>1</StartUp>
  </C0200>
  <C0201>
    <Name>Moberly</Name>
    <Longitude>-92.33765</Longitude>
    <Latitude>39.35065</Latitude>
    <Size>Small</Size>
    <Population></Population>
    <Farm>2</Farm>
    <StartUp>1</StartUp>
  </C0201>
  <C0202>
    <Name>Washington</Name>
    <Longitude>-73.83116</Longitude>
    <Latitude>39.35065</Latitude>
    <Size>Large</Size>
    <Population></Population>
  </C0202>
  <C0203>
    <Name>No City</Name>
    <Longitude>-55.32467</Longitude>
    <Latitude>39.35065</Latitude>
    <Size></Size>
    <Population></Population>
  </C0203>
  <C0204>
    <Name>No City</Name>
    <Longitude>-36.81818</Longitude>
    <Latitude>39.35065</Latitude>
    <Size></Size>
    <Population></Population>
  </C0204>
  <C0205>
    <Name>No City</Name>
    <Longitude>-18.31169</Longitude>
    <Latitude>39.35065</Latitude>
    <Size></Size>
    <Population></Population>
  </C0205>
  <C0206>
    <Name>Barcelona</Name>
    <Longitude>0.1948052</Longitude>
    <Latitude>39.35065</Latitude>
    <Size>Medium</Size>
    <Population></Population>
  </C0206>
  <C0207>
    <Name>Argostoli</Name>
    <Longitude>18.7013</Longitude>
    <Latitude>39.35065</Latitude>
    <Size>Small</Size>
    <Population></Population>
  </C0207>
  <C0208>
    <Name>Sivas</Name>
    <Longitude>37.20779</Longitude>
    <Latitude>39.35065</Latitude>
    <Size>Small</Size>
    <Population></Population>
  </C0208>
  <C0209>
    <Name>Serder</Name>
    <Longitude>55.71428</Longitude>
    <Latitude>39.35065</Latitude>
    <Size>Small</Size>
    <Population></Population>
  </C0209>
  <C0210>
    <Name>Kaxgar</Name>
    <Longitude>74.22078</Longitude>
    <Latitude>39.35065</Latitude>
    <Size>Medium</Size>
    <Population></Population>
  </C0210>
  <C0211>
    <Name>Jiayuguan</Name>
    <Longitude>92.72727</Longitude>
    <Latitude>39.35065</Latitude>
    <Size>Small</Size>
    <Population></Population>
  </C0211>
  <C0212>
    <Name>Beijing</Name>
    <Longitude>111.2338</Longitude>
    <Latitude>39.35065</Latitude>
    <Size>Large</Size>
    <Population></Population>
    <Farm>2</Farm>
    <StartUp>2</StartUp>
  </C0212>
  <C0213>
    <Name>Sokcho</Name>
    <Longitude>129.7402</Longitude>
    <Latitude>39.35065</Latitude>
    <Size>Small</Size>
    <Population></Population>
    <Farm>2</Farm>
    <StartUp>2</StartUp>
  </C0213>

  <!--Line 3-->
  <C0300>
    <Name>Dallas</Name>
    <Longitude>-101.6883</Longitude>
    <Latitude>30.1948</Latitude>
    <Size>Large</Size>
    <Population></Population>
    <Farm>2</Farm>
    <StartUp>1</StartUp>
  </C0300>
  <C0301>
    <Name>Tallahassee</Name>
    <Longitude>-83.18182</Longitude>
    <Latitude>30.1948</Latitude>
    <Size>Medium</Size>
    <Population></Population>
  </C0301>
  <C0302>
    <Name>No City</Name>
    <Longitude>-46.16883</Longitude>
    <Latitude>30.1948</Latitude>
    <Size></Size>
    <Population></Population>
  </C0302>
  <C0303>
    <Name>No City</Name>
    <Longitude>-27.66234</Longitude>
    <Latitude>30.1948</Latitude>
    <Size>Small</Size>
    <Population>270</Population>
  </C0303>
  <C0304>
    <Name>Marrakech</Name>
    <Longitude>-9.155844</Longitude>
    <Latitude>30.1948</Latitude>
    <Size>Small</Size>
    <Population></Population>
  </C0304>
  <C0305>
    <Name>Gadamis</Name>
    <Longitude>9.350649</Longitude>
    <Latitude>30.1948</Latitude>
    <Size>Small</Size>
    <Population></Population>
  </C0305>
  <C0306>
    <Name>Cario</Name>
    <Longitude>27.85714</Longitude>
    <Latitude>30.1948</Latitude>
    <Size>Medium</Size>
    <Population></Population>
  </C0306>
  <C0307>
    <Name>AI Basrah</Name>
    <Longitude>46.36364</Longitude>
    <Latitude>30.1948</Latitude>
    <Size>Medium</Size>
    <Population></Population>
  </C0307>
  <C0308>
    <Name>Mandi</Name>
    <Longitude>64.87012</Longitude>
    <Latitude>30.1948</Latitude>
    <Size>Medium</Size>
    <Population></Population>
  </C0308>
  <C0309>
    <Name>Huoerba</Name>
    <Longitude>83.37662</Longitude>
    <Latitude>30.1948</Latitude>
    <Size>Small</Size>
    <Population></Population>
  </C0309>
  <C0310>
    <Name>Ya'an</Name>
    <Longitude>101.8831</Longitude>
    <Latitude>30.1948</Latitude>
    <Size>Medium</Size>
    <Population></Population>
  </C0310>
  <C0311>
    <Name>Shanghai</Name>
    <Longitude>120.3896</Longitude>
    <Latitude>30.1948</Latitude>
    <Size>Large</Size>
    <Population></Population>
    <Farm>2</Farm>
    <StartUp>2</StartUp>
  </C0311>

  <!--Line 4-->
  <C0400>
    <Name>San Luis</Name>
    <Longitude>-92.33765</Longitude>
    <Latitude>21.03896</Latitude>
    <Size>Medium</Size>
    <Population></Population>
  </C0400>
  <C0401>
    <Name>Mokhtar</Name>
    <Longitude>0.1948052</Longitude>
    <Latitude>21.03896</Latitude>
    <Size>Small</Size>
    <Population></Population>
  </C0401>
  <C0402>
    <Name>Aouzou</Name>
    <Longitude>18.7013</Longitude>
    <Latitude>21.03896</Latitude>
    <Size>Small</Size>
    <Population></Population>
  </C0402>
  <C0403>
    <Name>Port Sudan</Name>
    <Longitude>37.20779</Longitude>
    <Latitude>21.03896</Latitude>
    <Size>Small</Size>
    <Population></Population>
  </C0403>
  <C0404>
    <Name>Masqat</Name>
    <Longitude>55.71428</Longitude>
    <Latitude>21.03896</Latitude>
    <Size>Small</Size>
    <Population></Population>
  </C0404>
  <C0405>
    <Name>Mumbai</Name>
    <Longitude>74.22078</Longitude>
    <Latitude>21.03896</Latitude>
    <Size>Large</Size>
    <Population></Population>
  </C0405>
  <C0406>
    <Name>Chittagong</Name>
    <Longitude>92.72727</Longitude>
    <Latitude>21.03896</Latitude>
    <Size>Medium</Size>
    <Population></Population>
  </C0406>
  <C0407>
    <Name>Zhanjiang</Name>
    <Longitude>111.2338</Longitude>
    <Latitude>21.03896</Latitude>
    <Size>Medium</Size>
    <Population></Population>
  </C0407>
  
  <!--Line 5-->
  <C0500>
    <Name>Panama</Name>
    <Longitude>-83.18182</Longitude>
    <Latitude>11.68831</Latitude>
    <Size>Medium</Size>
    <Population></Population>
    <Farm>4</Farm>
  </C0500>
  <C0501>
    <Name>Bamako</Name>
    <Longitude>-9.155844</Longitude>
    <Latitude>11.68831</Latitude>
    <Size>Medium</Size>
    <Population></Population>
  </C0501>
  <C0502>
    <Name>Kano</Name>
    <Longitude>9.350649</Longitude>
    <Latitude>11.68831</Latitude>
    <Size>Medium</Size>
    <Population></Population>
  </C0502>
  <C0503>
    <Name>EI Fula</Name>
    <Longitude>27.85714</Longitude>
    <Latitude>11.68831</Latitude>
    <Size>Small</Size>
    <Population></Population>
  </C0503>
  <C0504>
    <Name>Chennai</Name>
    <Longitude>83.37662</Longitude>
    <Latitude>11.68831</Latitude>
    <Size>Medium</Size>
    <Population></Population>
  </C0504>
  <C0505>
    <Name>Koh Kong</Name>
    <Longitude>101.8831</Longitude>
    <Latitude>11.68831</Latitude>
    <Size>Small</Size>
    <Population></Population>
  </C0505>
  <C0506>
    <Name>Batangas</Name>
    <Longitude>120.3896</Longitude>
    <Latitude>11.68831</Latitude>
    <Size>Medium</Size>
    <Population></Population>
  </C0506>

  <!--Line 6-->
  <C0600>
    <Name>Bogota</Name>
    <Longitude>-73.83116</Longitude>
    <Latitude>2.337662</Latitude>
    <Size>Medium</Size>
    <Population></Population>
    <Farm>4</Farm>
  </C0600>
  <C0601>
    <Name>Anapi</Name>
    <Longitude>-55.32467</Longitude>
    <Latitude>2.337662</Latitude>
    <Size>Small</Size>
    <Population></Population>
  </C0601>
  <C0602>
    <Name>No City</Name>
    <Longitude>-18.31169</Longitude>
    <Latitude>2.337662</Latitude>
    <Size></Size>
    <Population></Population>
  </C0602>
  <C0603>
    <Name>Gemena</Name>
    <Longitude>18.7013</Longitude>
    <Latitude>2.337662</Latitude>
    <Size>Medium</Size>
    <Population></Population>
  </C0603>
  <C0604>
    <Name>Marsabit</Name>
    <Longitude>37.20779</Longitude>
    <Latitude>2.337662</Latitude>
    <Size>Small</Size>
    <Population></Population>
  </C0604>
  <C0605>
    <Name>Woyla</Name>
    <Longitude>92.72727</Longitude>
    <Latitude>2.337662</Latitude>
    <Size>Small</Size>
    <Population></Population>
  </C0605>
  <C0606>
    <Name>Sarikei</Name>
    <Longitude>111.2338</Longitude>
    <Latitude>2.337662</Latitude>
    <Size>Small</Size>
    <Population></Population>
  </C0606>

  <!--Line 7-->
  <C0700>
    <Name>Porto Velho</Name>
    <Longitude>-64.67532</Longitude>
    <Latitude>-6.818182</Latitude>
    <Size>Medium</Size>
    <Population></Population>
  </C0700>
  <C0701>
    <Name>Teresina</Name>
    <Longitude>-46.16883</Longitude>
    <Latitude>-6.818182</Latitude>
    <Size>Medium</Size>
    <Population></Population>
  </C0701>
  <C0702>
    <Name>No City</Name>
    <Longitude>-27.66234</Longitude>
    <Latitude>-6.818182</Latitude>
    <Size></Size>
    <Population></Population>
  </C0702>
  <C0703>
    <Name>Manono</Name>
    <Longitude>27.85714</Longitude>
    <Latitude>-6.818182</Latitude>
    <Size>Medium</Size>
    <Population></Population>
  </C0703>
  <C0704>
    <Name>Jakarta</Name>
    <Longitude>101.8831</Longitude>
    <Latitude>-6.818182</Latitude>
    <Size>Large</Size>
    <Population></Population>
  </C0704>
  <C0705>
    <Name>Ruteng</Name>
    <Longitude>120.3896</Longitude>
    <Latitude>-6.818182</Latitude>
    <Size>Small</Size>
    <Population></Population>
  </C0705>
  <C0706>
    <Name>Gahgo</Name>
    <Longitude>138.8961</Longitude>
    <Latitude>-6.818182</Latitude>
    <Size>Small</Size>
    <Population></Population>
  </C0706>

  <!--Line 8-->
  <C0800>
    <Name>Cuiaba</Name>
    <Longitude>-55.32467</Longitude>
    <Latitude>-15.97403</Latitude>
    <Size>Medium</Size>
    <Population></Population>
    <Farm>2</Farm>
    <StartUp>3</StartUp>
  </C0800>
  <C0801>
    <Name>Salvador</Name>
    <Longitude>-36.81818</Longitude>
    <Latitude>-15.97403</Latitude>
    <Size>Medium</Size>
    <Population></Population>
  </C0801>
  <C0802>
    <Name>Huambo</Name>
    <Longitude>18.7013</Longitude>
    <Latitude>-15.97403</Latitude>
    <Size>Small</Size>
    <Population></Population>
  </C0802>
  <C0803>
    <Name>Blantyre</Name>
    <Longitude>37.20779</Longitude>
    <Latitude>-15.97403</Latitude>
    <Size>Medium</Size>
    <Population>270</Population>
  </C0803>
  <C0804>
    <Name>Darwin</Name>
    <Longitude>129.7402</Longitude>
    <Latitude>-15.97403</Latitude>
    <Size>Medium</Size>
    <Population></Population>
    <Farm>2</Farm>
    <StartUp>4</StartUp>
  </C0804>


  <!--Line 9-->
  <C0900>
    <Name>Salta</Name>
    <Longitude>-64.67532</Longitude>
    <Latitude>-25.32467</Latitude>
    <Size>Medium</Size>
    <Population></Population>
    <Farm>2</Farm>
    <StartUp>3</StartUp>
  </C0900>
  <C0901>
    <Name>San Paulo</Name>
    <Longitude>-46.16883</Longitude>
    <Latitude>-25.32467</Latitude>
    <Size>Large</Size>
    <Population></Population>
    <Farm>2</Farm>
    <StartUp>3</StartUp>
  </C0901>
  <C0902>
    <Name>Pretoria</Name>
    <Longitude>27.85714</Longitude>
    <Latitude>-25.32467</Latitude>
    <Size>Large</Size>
    <Population></Population>
  </C0902>
  <C0903>
    <Name>Meekatharra</Name>
    <Longitude>120.3896</Longitude>
    <Latitude>-25.32467</Latitude>
    <Size>Small</Size>
    <Population></Population>
    <Farm>2</Farm>
    <StartUp>4</StartUp>
  </C0903>
  <C0904>
    <Name>Mt Isa</Name>
    <Longitude>138.8961</Longitude>
    <Latitude>-25.32467</Latitude>
    <Size>Medium</Size>
    <Population></Population>
    <Farm>2</Farm>
    <StartUp>4</StartUp>
  </C0904>

  <!--Line 10-->
  <C1000>
    <Name>Montevideo</Name>
    <Longitude>-55.32467</Longitude>
    <Latitude>-34.67532</Latitude>
    <Size>Medium</Size>
    <Population></Population>
    <Farm>2</Farm>
    <StartUp>3</StartUp>
  </C1000>
  <C1001>
    <Name>Cape Town</Name>
    <Longitude>18.7013</Longitude>
    <Latitude>-34.67532</Latitude>
    <Size>Large</Size>
    <Population></Population>
  </C1001>
  <C1002>
    <Name>Sydney</Name>
    <Longitude>148.2467</Longitude>
    <Latitude>-34.67532</Latitude>
    <Size>Large</Size>
    <Population></Population>
    <Farm>2</Farm>
    <StartUp>4</StartUp>
  </C1002>
  
  <!--Line 11-->
  <C1100>
    <Name>Trelew</Name>
    <Longitude>-64.67532</Longitude>
    <Latitude>-43.63636</Latitude>
    <Size>Small</Size>
    <Population></Population>
  </C1100>


</cities>
