<?xml version="1.0" encoding="utf-8" ?>

<Cities>
  <Peking>
    <Name>Municipality of Beijing</Name>
    <Longitude>0.408056</Longitude>
    <Latitude>39.904444</Latitude>
    <Size>Large</Size>
    <Population>1695</Population>
  </Peking>

  <Daqing>
    <Name>Daqing</Name>
    <Longitude>125.120373</Longitude>
    <Latitude>46.588597</Latitude>
    <Size>Small</Size>
    <Population>270</Population>
  </Daqing>

  <Wuhan>
    <Name>Wuhan</Name>
    <Longitude>144.305</Longitude>
    <Latitude>30.5097222</Latitude>
    <Size>Medium</Size>
    <Population>970</Population>
  </Wuhan>

  <Shanghai>
    <Name>Shanghai</Name>
    <Longitude>121.47278</Longitude>
    <Latitude>31.23056</Latitude>
    <Size>Large</Size>
    <Population>1888</Population>
  </Shanghai>

  <Guangzhou>
    <Name>Canton</Name>
    <Longitude>131.2641</Longitude>
    <Latitude>23.1289</Latitude>
    <Size>Medium</Size>
    <Population>935</Population>
  </Guangzhou>

  <Chengdu>
    <Name>Chengdu</Name>
    <Longitude>104.065</Longitude>
    <Latitude>30.6586</Latitude>
    <Size>Medium</Size>
    <Population>1125</Population>
  </Chengdu>

  <Urumuqi>
    <Name>Urumuqi</Name>
    <Longitude>87.61722</Longitude>
    <Latitude>43.82556</Latitude>
    <Size>Medium</Size>
    <Population>235</Population>
  </Urumuqi>

  <JiayYuguan>
    <Name>Jiayuguan</Name>
    <Longitude>98.262577</Longitude>
    <Latitude>39.769624</Latitude>
    <Size>Small</Size>
    <Population>13.8</Population>
  </JiayYuguan>

  <Geermu>
    <Name>Ge'ermu</Name>
    <Longitude>94.904709</Longitude>
    <Latitude>36.414099</Latitude>
    <Size>Small</Size>
    <Population>17.5</Population>
  </Geermu>

  <Ulaanbaatar>
    <Name>Ulan Bator</Name>
    <Longitude>106.908989</Longitude>
    <Latitude>47.920944</Latitude>
    <Size>Medium</Size>
    <Population>94.2</Population>
  </Ulaanbaatar>

  <!--印度-->
  <NewDelhi>
    <Name>New Delhi</Name>
    <Longitude>71.225</Longitude>
    <Latitude>28.635278</Latitude>
    <Size>Medium</Size>
    <Population>900</Population>
  </NewDelhi>

  <Mumbai>
    <Name>Mumbai</Name>
    <Longitude>72.8561</Longitude>
    <Latitude>19.0175</Latitude>
    <Size>Large</Size>
    <Population>1400</Population>
  </Mumbai>

  <Nagpur>
    <Name>Nagpur</Name>
    <Longitude>79.08886</Longitude>
    <Latitude>21.153517</Latitude>
    <Size>Medium</Size>
    <Population>242</Population>
  </Nagpur>

  <!--缅甸-->
  <Mandalay>
    <Name>Mandalay</Name>
    <Longitude>96.0993</Longitude>
    <Latitude>21.992556</Latitude>
    <Size>Medium</Size>
    <Population>130</Population>
  </Mandalay>

  <!--澳大利亚-->
  <Melbourne>
    <Name>Melbourne</Name>
    <Longitude>144.970093</Longitude>
    <Latitude>-37.818463</Latitude>
    <Size>Large</Size>
    <Population>389</Population>
  </Melbourne>

  <Albany>
    <Name>Albany</Name>
    <Longitude>145.775</Longitude>
    <Latitude>-16.925278</Latitude>
    <Size>Medium</Size>
    <Population>85</Population>
  </Albany>

  <Caims>
    <Name>Caims</Name>
    <Longitude>117.878838</Longitude>
    <Latitude>-35.005534</Latitude>
    <Size>Medium</Size>
    <Population>15</Population>
  </Caims>

  <AliceSprings>
    <Name>Alice Springs</Name>
    <Longitude>133.879995</Longitude>
    <Latitude>-23.700808</Latitude>
    <Size>Small</Size>
    <Population>2</Population>
  </AliceSprings>

  <!--阿富汗-->
  <Qandahar>
    <Name>Kandahar</Name>
    <Longitude>65.721588</Longitude>
    <Latitude>31.617866</Latitude>
    <Size>Small</Size>
    <Population>46</Population>
  </Qandahar>

  <!--俄罗斯-->
  <Moscow>
    <Name>Moscow</Name>
    <Longitude>37.617188</Longitude>
    <Latitude>55.748758</Latitude>
    <Size>Large</Size>
    <Population>1052</Population>
  </Moscow>

  <Novosibirsk>
    <Name>Novosibirsk</Name>
    <Longitude>82.92326</Longitude>
    <Latitude>55.024086</Latitude>
    <Size>Small</Size>
    <Population>142</Population>
  </Novosibirsk>

  <Irkutsk>
    <Name>Irkutsk</Name>
    <Longitude>104.308319</Longitude>
    <Latitude>52.27383</Latitude>
    <Size>Small</Size>
    <Population>59</Population>
  </Irkutsk>

  <Komsomolsk-on-Amur>
    <Name>Komsomolsk-on-Amur</Name>
    <Longitude>136.995392</Longitude>
    <Latitude>50.549217</Latitude>
    <Size>Medium</Size>
    <Population>27</Population>
  </Komsomolsk-on-Amur>

  <!--孟加拉国-->
  <Dhaka>
    <Name>Dhaka</Name>
    <Longitude>90.391388</Longitude>
    <Latitude>23.772149</Latitude>
    <Size>Medium</Size>
    <Population>700</Population>
  </Dhaka>

  <!--哈萨克斯坦-->
  <Suzak>
    <Name>Suzak</Name>
    <Longitude>68.466282</Longitude>
    <Latitude>44.140272</Latitude>
    <Size>Small</Size>
    <Population>30</Population>
  </Suzak>

  <Tashkent>
    <Name>Tashkent</Name>
    <Longitude>69.257813</Longitude>
    <Latitude>41.309277</Latitude>
    <Size>Medium</Size>
    <Population>218</Population>
  </Tashkent>

  <!--乌兹别克斯坦-->
  <Balkanabat>
    <Name>Balkanabat</Name>
    <Longitude>54.37593</Longitude>
    <Latitude>39.504537</Latitude>
    <Size>Small</Size>
    <Population>8</Population>
  </Balkanabat>

  <!--法国-->
  <Paris>
    <Name>Paris</Name>
    <Longitude>2.35083</Longitude>
    <Latitude>48.8567</Latitude>
    <Size>Large</Size>
    <Population>1176</Population>
  </Paris>

  <Toulouse>
    <Name>Toulouse</Name>
    <Longitude>1.441612</Longitude>
    <Latitude>43.601279</Latitude>
    <Size>Medium</Size>
    <Population>1102</Population>
  </Toulouse>

  <Angers>
    <Name>Angers</Name>
    <Longitude>-0.5476</Longitude>
    <Latitude>47.466049</Latitude>
    <Size>Small</Size>
    <Population>15</Population>
  </Angers>

  <!--德国-->
  <Berlin>
    <Name>Berlin</Name>
    <Longitude>13.4095</Longitude>
    <Latitude>52.520399</Latitude>
    <Size>Large</Size>
    <Population>343</Population>
  </Berlin>

  <Hannover>
    <Name>Hanover</Name>
    <Longitude>9.730453</Longitude>
    <Latitude>52.382515</Latitude>
    <Size>Medium</Size>
    <Population>52</Population>
  </Hannover>

  <Ulm>
    <Name>Ulm</Name>
    <Longitude>9.990349</Longitude>
    <Latitude>48.397297</Latitude>
    <Size>Small</Size>
    <Population>12</Population>
  </Ulm>

  <!--波兰-->
  <Warszawa>
    <Name>Warsaw</Name>
    <Longitude>21.055298</Longitude>
    <Latitude>52.223593</Latitude>
    <Size>Large</Size>
    <Population>171</Population>
  </Warszawa>

  <Torun>
    <Name>Torun</Name>
    <Longitude>18.608952</Longitude>
    <Latitude>53.009929</Latitude>
    <Size>Small</Size>
    <Population>20</Population>
  </Torun>

  <!--乌克兰-->
  <Kyiv>
    <Name>Kiev</Name>
    <Longitude>30.531006</Longitude>
    <Latitude>50.447011</Latitude>
    <Size>Medium</Size>
    <Population>281</Population>
  </Kyiv>

  <Kryvyi>
    <Name>Kryvyi Rih</Name>
    <Longitude>33.397236</Longitude>
    <Latitude>47.897355</Latitude>
    <Size>Small</Size>
    <Population>71</Population>
  </Kryvyi>

  <!--罗马尼亚-->
  <Craiova>
    <Name>Craiova</Name>
    <Longitude>23.794327</Longitude>
    <Latitude>44.318936</Latitude>
    <Size>Small</Size>
    <Population>29</Population>
  </Craiova>

  <Bucuresti>
    <Name>Bucharest</Name>
    <Longitude>26.109009</Longitude>
    <Latitude>44.425934</Latitude>
    <Size>Medium</Size>
    <Population>194</Population>
  </Bucuresti>

  <!--西班牙-->
  <Valladolid>
    <Name>Valladolid</Name>
    <Longitude>-4.731503</Longitude>
    <Latitude>41.652265</Latitude>
    <Size>Small</Size>
    <Population>31</Population>
  </Valladolid>

  <Madrid>
    <Name>Madrid</Name>
    <Longitude>-3.702736</Longitude>
    <Latitude>40.418724</Latitude>
    <Size>Large</Size>
    <Population>321</Population>
  </Madrid>

  <Valencia>
    <Name>Valencia</Name>
    <Longitude>-0.374908</Longitude>
    <Latitude>39.468005</Latitude>
    <Size>Medium</Size>
    <Population>226</Population>
  </Valencia>

  <!--意大利-->
  <Milano>
    <Name>Milan</Name>
    <Longitude>9.186287</Longitude>
    <Latitude>45.462539</Latitude>
    <Size>Medium</Size>
    <Population>130</Population>
  </Milano>

  <!--阿尔及利亚-->
  <Alger>
    <Name>Alger</Name>
    <Longitude>3.048878</Longitude>
    <Latitude>36.738609</Latitude>
    <Size>Medium</Size>
    <Population>151</Population>
  </Alger>

  <BeniAbbes>
    <Name>Beni Abbes</Name>
    <Longitude>-2.169456</Longitude>
    <Latitude>30.134439</Latitude>
    <Size>Small</Size>
    <Population>1</Population>
  </BeniAbbes>

  <!--沙特阿拉伯-->
  <ArRiyad>
    <Name>Ar Riyad</Name>
    <Longitude>46.728973</Longitude>
    <Latitude>24.673226</Latitude>
    <Size>Medium</Size>
    <Population>545</Population>
  </ArRiyad>
  <Hail>
    <Name>Hail</Name>
    <Longitude>41.693802</Longitude>
    <Latitude>27.520451</Latitude>
    <Size>Small</Size>
    <Population>26</Population>
  </Hail>


  <!--伊拉克-->
  <Baghdad>
    <Name>Baghdad</Name>
    <Longitude>44.396439</Longitude>
    <Latitude>33.313889</Latitude>
    <Size>Large</Size>
    <Population>655</Population>
  </Baghdad>

  <!--埃及-->
  <Cario>
    <Name>Cario</Name>
    <Longitude>31.2494</Longitude>
    <Latitude>30.064722</Latitude>
    <Size>Large</Size>
    <Population>773</Population>
  </Cario>

  <Aswan>
    <Name>Aswan</Name>
    <Longitude>32.90637</Longitude>
    <Latitude>24.091291</Latitude>
    <Size>Small</Size>
    <Population>110</Population>
  </Aswan>
  
  <!--利比亚-->
  <EIGezira>
    <Name>EI Gezira</Name>
    <Longitude>21.088772</Longitude>
    <Latitude>25.674021</Latitude>
    <Size>Small</Size>
    <Population>30</Population>
  </EIGezira>

  <Sabha>
    <Name>Sabha</Name>
    <Longitude>14.422388</Longitude>
    <Latitude>27.039251</Latitude>
    <Size>Small</Size>
    <Population>13</Population>
  </Sabha>
  
  <!--英国-->
  <London>
    <Name>London</Name>
    <Longitude>-0.681152</Longitude>
    <Latitude>51.713416</Latitude>
    <Size>Large</Size>
    <Population>1200</Population> 
  </London>
  
  <!--苏丹-->
  <Khartoum>
    <Name>Khartoum</Name>
    <Longitude>32.523651</Longitude>
    <Latitude>15.597245</Latitude>
    <Size>Medium</Size>
    <Population>100</Population>
  </Khartoum>

  <Juba>
    <Name>Juba</Name>
    <Longitude>31.59462</Longitude>
    <Latitude>4.84126</Latitude>
    <Size>Small</Size>
    <Population>16</Population>
  </Juba>
  
  <!--埃塞俄比亚-->
  <AddisAbeta>
    <Name>AddisAbeta</Name>
    <Longitude>38.752213</Longitude>
    <Latitude>9.010894</Latitude>
    <Size>Medium</Size>
    <Population>200</Population>
  </AddisAbeta>
  
  <!--Niger-->
  <Agadez>
    <Name>Agadez</Name>
    <Longitude>7.984571</Longitude>
    <Latitude>16.972577</Latitude>
    <Size>Small</Size>
    <Population>30</Population>

  </Agadez>

  <!--Chad-->
  <Ati>
    <Name>Ati</Name>
    <Longitude>18.336954</Longitude>
    <Latitude>13.214211</Latitude>
    <Size>Small</Size>
    <Population>30</Population>

  </Ati>

  <!--Mali-->
  <Bamako>
    <Name></Name>
    <Longitude>-7.988777</Longitude>
    <Latitude>12.624928</Latitude>
    <Size>Medium</Size>
    <Population>150</Population>

  </Bamako>
  
  <!--Mauritania-->
  <Nouakchott>
    <Name></Name>
    <Longitude>-15.979271</Longitude>
    <Latitude>18.08777</Latitude>
    <Size>Medium</Size>
    <Population>61</Population>

  </Nouakchott>
  
  <!--Cameroon-->
  <Yaounde>
    <Name>Yaounde</Name>
    <Longitude>11.517792</Longitude>
    <Latitude>3.857746</Latitude>
    <Size>Medium</Size>
    <Population>143</Population>

  </Yaounde>

  <!--Cango-->
  <Kinshasa>
    <Name>Kinshasa</Name>
    <Longitude>15.259666</Longitude>
    <Latitude>-4.318682</Latitude>
    <Size>Medium</Size>
    <Population>600</Population>
  </Kinshasa>
  
  <Bunia>
    <Name>Bunia</Name>
    <Longitude>30.252228</Longitude>
    <Latitude>1.562011</Latitude>
    <Size>Small</Size>
    <Population>20</Population>
    
  </Bunia>

  <!--Zambia-->
  <Lusaka>
    <Name>Lusaka</Name>
    <Longitude>28.280869</Longitude>
    <Latitude>-15.410988</Latitude>
    <Size>Medium</Size>
    <Population>200</Population>
  </Lusaka>
  
  <!--Angola-->
  <Kuito>
    <Name>Kuito</Name>
    <Longitude>16.938086</Longitude>
    <Latitude>-12.382845</Latitude>
    <Size>Small</Size>
    <Population>30</Population>
  </Kuito>

  <Luanda>
    <Name>Luanda</Name>
    <Longitude>13.259468</Longitude>
    <Latitude>-8.849454</Latitude>
    <Size>Medium</Size>
    <Population>479</Population>
  </Luanda>
  
  <!--Tanzania-->
  <Salaam>
    <Name>Salaam</Name>
    <Longitude>39.241447</Longitude>
    <Latitude>-6.820762</Latitude>
    <Size>Medium</Size>
    <Population>245</Population>

  </Salaam>

  <!--Namibia-->
  <Windhoek>
    <Name>Windhoek</Name>
    <Longitude>17.07756</Longitude>
    <Latitude>-22.569317</Latitude>
    <Size>Medium</Size>
    <Population>200</Population>
  </Windhoek>

  <!--Botswana-->
  <Francistown>
    <Name>Francistown</Name>
    <Longitude>27.510281</Longitude>
    <Latitude>-21.173207</Latitude>
    <Size>Medium</Size>
    <Population>11</Population>
  </Francistown>
  
  <!--SouthAfrica-->
  <Capetown>
    <Name>Capetown</Name>
    <Longitude>18.548355</Longitude>
    <Latitude>-33.930827</Latitude>
    <Size>Large</Size>
    <Population>290</Population>
  </Capetown>

  <Durban>
    <Name>Durban</Name>
    <Longitude>30.914841</Longitude>
    <Latitude>-29.829327</Latitude>
    <Size>Large</Size>
    <Population>309</Population>

  </Durban>

  <Upington>
    <Name>Upington</Name>
    <Longitude>21.242409</Longitude>
    <Latitude>-28.459033</Latitude>
    <Size>Small</Size>
    <Population>10</Population>

  </Upington>
  
  
  
  <!--加拿大-->
  <Calgary>
    <Name>Calgary</Name>
    <Longitude>-114.051819</Longitude>
    <Latitude>51.054344</Latitude>
    <Size>Large</Size>
    <Population>108</Population>
  </Calgary>

  <Saskatoon>
    <Name>Saskatoon</Name>
    <Longitude>-106.671066</Longitude>
    <Latitude>52.127165</Latitude>
    <Size>Medium</Size>
    <Population>20</Population>
  </Saskatoon>

  <Quebec>
    <Name>Quebec</Name>
    <Longitude>-71.215439</Longitude>
    <Latitude>46.80288</Latitude>
    <Size>Medium</Size>
    <Population>778</Population>
  </Quebec>

  <Halifax>
    <Name>Halifax</Name>
    <Longitude>-63.582687</Longitude>
    <Latitude>44.674513</Latitude>
    <Size>Medium</Size>
    <Population>57</Population>
  </Halifax>
  
  <!--US-->
  <Boston>
    <Name>Boston</Name>
    <Longitude>-71.064034</Longitude>
    <Latitude>42.354992</Latitude>
    <Size>Large</Size>
    <Population>59</Population>
  </Boston>

  <NewYork>
    <Name>New York</Name>
    <Longitude>-74.057465</Longitude>
    <Latitude>40.782621</Latitude>
    <Size>Large</Size>
    <Population>1922</Population>
  </NewYork>

  <Washington>
    <Name>Washington</Name>
    <Longitude>-77.01004</Longitude>
    <Latitude>38.907064</Latitude>
    <Size>Large</Size>
    <Population>589</Population>

  </Washington>

  <Kingsport>
    <Name>Kingsport</Name>
    <Longitude>-82.561226</Longitude>
    <Latitude>36.547708</Latitude>
    <Size>Large</Size>
    <Population>569</Population>

  </Kingsport>

  <Orlando>
    <Name>Orlando</Name>
    <Longitude>-81.489029</Longitude>
    <Latitude>28.550751</Latitude>
    <Size>Small</Size>
    <Population>22</Population>
  </Orlando>

  <Miami>
    <Name>Miami</Name>
    <Longitude>-80.38284</Longitude>
    <Latitude>25.938287</Latitude>
    <Size>Large</Size>
    <Population>560</Population>

  </Miami>

  <Birmingham>
    <Name>Birmingham</Name>
    <Longitude>-86.819458</Longitude>
    <Latitude>33.522506</Latitude>
    <Size>Medium</Size>
    <Population>423</Population>

  </Birmingham>
  <Indianapolis>
    <Name>Indianapolis</Name>
    <Longitude>-86.158905</Longitude>
    <Latitude>39.781102</Latitude>
    <Size>Medium</Size>
    <Population>400</Population>

  </Indianapolis>

  <CapeGirardeau>
    <Name>Cape Girardeau</Name>
    <Longitude>-89.542522</Longitude>
    <Latitude>37.31311</Latitude>
    <Size>Small</Size>
    <Population>608</Population>

  </CapeGirardeau>

  <Abilene>
    <Name>Abilene</Name>
    <Longitude>-99.737663</Longitude>
    <Latitude>32.449955</Latitude>
    <Size>Small</Size>
    <Population>6</Population>
  </Abilene>

  <RapidCity>
    <Name>Rapid City</Name>
    <Longitude>-103.187714</Longitude>
    <Latitude>44.088818</Latitude>
    <Size>Small</Size>
    <Population>60</Population>

  </RapidCity>

  <Wichita>
    <Name>Wichita</Name>
    <Longitude>-97.336464</Longitude>
    <Latitude>37.691699</Latitude>
    <Size>Medium</Size>
    <Population>13</Population>

  </Wichita>

  <Albuquerque>
    <Name>Albuquerque</Name>
    <Longitude>-106.621628</Longitude>
    <Latitude>35.136195</Latitude>
    <Size>Medium</Size>
    <Population>80</Population>

  </Albuquerque>

  <SanFrancisco>
    <Name>San Francisco</Name>
    <Longitude>-121.78894</Longitude>
    <Latitude>38.173433</Latitude>
    <Size>Large</Size>
    <Population>73</Population>

  </SanFrancisco>

  <Bend>
    <Name>Bend</Name>
    <Longitude>-121.304169</Longitude>
    <Latitude>44.059219</Latitude>
    <Size>Medium</Size>
    <Population>11</Population>
  </Bend>

  <Seattle>
    <Name>Seattle</Name>
    <Longitude>-122.288818</Longitude>
    <Latitude>47.604311</Latitude>
    <Size>Large</Size>
    <Population>57</Population>
  </Seattle>
  
  <!--Georgia-->
  <Kutaisi>
    <Name>Kutaisi</Name>
    <Longitude>42.681885</Longitude>
    <Latitude>42.277309</Latitude>
    <Size>Medium</Size>
    <Population>70</Population>
  </Kutaisi>

  
  <!--马来西亚-->
  <Medan>
    <Name>Medan</Name>
    <Longitude>98.677311</Longitude>
    <Latitude>3.583839</Latitude>
    <Size>Medium</Size>
    <Population>239</Population>

  </Medan>

  <!--印度尼西亚-->
  <KotaSamarinda>
    <Name>Kota Samarinda</Name>
    <Longitude>117.103271</Longitude>
    <Latitude>-0.505365</Latitude>
    <Size>Small</Size>
    <Population>56</Population>

  </KotaSamarinda>
  
  <!--Papua New Guinea-->
  <Kowatasi>
    <Name>Kowatasi</Name>
    <Longitude>142.998047</Longitude>
    <Latitude>-7.144499</Latitude>
    <Size>Small</Size>
    <Population>25</Population>

  </Kowatasi>

  <!--墨西哥-->
  <SanJuanBautistaTuxtepec>
    <Name>San Juan Bautista Tuxtepec</Name>
    <Longitude>-96.14213</Longitude>
    <Latitude>18.085322</Latitude>
    <Size>Small</Size>
    <Population>30</Population>
  </SanJuanBautistaTuxtepec>


  <Maraba>
    <Name>Maraba</Name>
    <Longitude>-49.105968</Longitude>
    <Latitude>-5.352838</Latitude>
    <Size>Medium</Size>
    <Population>15</Population>
  </Maraba>

  <Manaus>
    <Name>Manaus</Name>
    <Longitude>-60.010757</Longitude>
    <Latitude>-3.08258</Latitude>
    <Size>Medium</Size>
    <Population>150</Population>
  </Manaus>

  <Sinop>
    <Name>Sinop</Name>
    <Longitude>-55.503359</Longitude>
    <Latitude>-11.858699</Latitude>
    <Size>Small</Size>
    <Population>18</Population>
  </Sinop>

  <SaoPaulo>
    <Name>São Paulo</Name>
    <Longitude>-46.63765</Longitude>
    <Latitude>-23.559581</Latitude>
    <Size>Large</Size>
    <Population>1850</Population>
  </SaoPaulo>

  <Brasilia>
    <Name>Brasilia</Name>
    <Longitude>-47.969055</Longitude>
    <Latitude>-15.826609</Latitude>
    <Size>Medium</Size>
    <Population>205</Population>

  </Brasilia>
  
  <!--秘鲁-->
  <Iquitos>
    <Name>Iquitos</Name>
    <Longitude>-73.255377</Longitude>
    <Latitude>-3.754977</Latitude>
    <Size>Small</Size>
    <Population>40</Population>
  </Iquitos>

  <!--Venezuela-->
  <Barinas>
    <Name>Barinas</Name>
    <Longitude>-70.227356</Longitude>
    <Latitude>8.629903</Latitude>
    <Size>Medium</Size>
    <Population>18</Population>
  </Barinas>


  <!--玻利维亚-->
  <SantaCruz>
    <Name>Santa Cruz de La Sierra</Name>
    <Longitude>-63.179626</Longitude>
    <Latitude>-17.784324</Latitude>
    <Size>Medium</Size>
    <Population>155</Population>

  </SantaCruz>

  <!--Argentina-->
  <BuenosAires>
    <Name>BuenosAires</Name>
    <Longitude>-58.495331</Longitude>
    <Latitude>-34.675006</Latitude>
    <Size>Large</Size>
    <Population>1300</Population>

  </BuenosAires>

  <Cordoba>
    <Name>Cordoba</Name>
    <Longitude>-64.188652</Longitude>
    <Latitude>-31.406396</Latitude>
    <Size>Medium</Size>
    <Population>306</Population>

  </Cordoba>

  <SantaRosa>
    <Name>Santa Rosa</Name>
    <Longitude>-64.287529</Longitude>
    <Latitude>-36.623794</Latitude>
    <Size>Small</Size>
    <Population>29</Population>

  </SantaRosa>
 
  <!--智利-->
  <LosAngles>
    <Name>Los Angles</Name>
    <Longitude>-72.351151</Longitude>
    <Latitude>-37.471316</Latitude>
    <Size>Small</Size>
    <Population>30</Population>

  </LosAngles>
</Cities>